asv id,latitude,longitude,name,desc,color,source,precision
1,46.173856,6.021339,"Cartigny, Switzerland","Cartigny, GENÈVE, CH",,MapQuest,city/town
2,46.201756,6.146601,"Genf, Switzerland","Geneva, GENÈVE, CH",,MapQuest,city/town
3,46.232841,6.081779,"Meyrin, Switzerland","Meyrin, GENÈVE, CH",,MapQuest,city/town
4,46.264418,6.157064,"Genthod, Switzerland","Genthod, GENÈVE, CH",,MapQuest,city/town
5,46.236763,6.269155,"Jussy, Switzerland","Jussy, GENÈVE, CH",,MapQuest,city/town
6,46.316338,6.192951,"Coppet, Switzerland","Coppet, VAUD, CH",,MapQuest,city/town
7,47.595602,8.783005,"Nyon-Prangins, Switzerland","Neunforn, THURGAU, CH",,MapQuest,city/town
8,46.446839,6.157778,"St. Cergue, Switzerland","Saint-Cergue, VAUD, CH",,MapQuest,city/town
9,46.459061,6.341098,"Rolle, Switzerland","Rolle, VAUD, CH",,MapQuest,city/town
10,46.509327,6.498317,"Morges, Switzerland","Morges, VAUD, CH",,MapQuest,city/town
11,46.521827,6.632703,"Lausanne, Switzerland","Lausanne, VAUD, CH",,MapQuest,city/town
12,46.503277,6.686788,"Lutry, Switzerland","Lutry, VAUD, CH",,MapQuest,city/town
13,46.463078,6.84289,"Vevey, Switzerland","Vevey, VAUD, CH",,MapQuest,city/town
14,46.406472,6.971561,"Villeneuve, Switzerland","Villeneuve, VAUD, CH",,MapQuest,city/town
15,46.317901,6.968893,"Aigle, Switzerland","Aigle, VAUD, CH",,MapQuest,city/town
16,46.29897,7.05646,"Villars s. Ollon, Switzerland","Sentier du Victoria, Ollon, Vaud, CH",,MapQuest,street
17,46.247375,7.010776,"Bex, Switzerland","Bex, VAUD, CH",,MapQuest,city/town
18,46.255457,6.953783,"Monthey, Switzerland","Monthey, VALAIS - WALLIS, CH",,MapQuest,city/town
19,46.175679,6.868767,"Champéry, Switzerland","Champéry, VALAIS - WALLIS, CH",,MapQuest,city/town
20,46.083415,6.975772,"Finhaut, Switzerland","Finhaut, VALAIS - WALLIS, CH",,MapQuest,city/town
21,46.103115,7.072735,"Martigny, Switzerland","Martigny, VALAIS - WALLIS, CH",,MapQuest,city/town
22,46.030068,7.145363,"Orsières, Switzerland","Orsières, VALAIS - WALLIS, CH",,MapQuest,city/town
23,46.075744,7.075126,"Le Châble, Switzerland","Les Valettes, VALAIS - WALLIS, CH",,MapQuest,city/town
24,46.11273,7.495707,"Evolène, Switzerland","Evolène, VALAIS - WALLIS, CH",,MapQuest,city/town
25,46.024452,8.932552,"Vissoie, Switzerland","Vezia, TICINO, CH",,MapQuest,city/town
26,46.292252,7.53232,"Sierre, Switzerland","Sierre, VALAIS - WALLIS, CH",,MapQuest,city/town
27,46.346379,7.537519,"Mollens, Switzerland","Mollens, CH",,MapQuest,city/town
28,46.231175,7.35888,"Sitten, Switzerland","Sion, VALAIS - WALLIS, CH",,MapQuest,city/town
29,46.212346,7.259116,"Ardon, Switzerland","Ardon, VALAIS - WALLIS, CH",,MapQuest,city/town
30,46.34906,7.05266,"Ormont-La Forclaz, Switzerland","Route de la Forclaz, Ormont-Dessous, Vaud, CH",,MapQuest,street
31,46.473958,7.13056,"Château-d'Oex, Switzerland","Château-d'Œx, VAUD, CH",,MapQuest,city/town
32,46.487127,7.042571,"Montbovon, Switzerland","Montbovon, FRIBOURG, CH",,MapQuest,city/town
33,46.45513,6.89805,"Brent s. Montreux, Switzerland","Route de Brent, Montreux, Vaud, CH",,MapQuest,street
34,46.526529,6.899654,"Châtel-St-Denis, Switzerland","Châtel-Saint-Denis, FRIBOURG, CH",,MapQuest,city/town
35,46.570924,6.827467,"Oron-la-Ville, Switzerland","Oron-La-Ville, VAUD, CH",,MapQuest,city/town
36,46.587613,6.764993,"Mézières, Switzerland","Mézières, VAUD, CH",,MapQuest,city/town
37,46.548288,6.393457,"Froideville, Switzerland","Froideville, VAUD, CH",,MapQuest,city/town
38,46.50881,6.30707,"Gimel, Switzerland","Gimel, VAUD, CH",,MapQuest,city/town
39,46.604664,6.23377,"Le Sentier, Switzerland","Le Chenit, VAUD, CH",,MapQuest,city/town
40,46.619407,6.411548,"L'Isle, Switzerland","L'Isle, VAUD, CH",,MapQuest,city/town
41,46.61695,6.47243,"Cossonay-La Chaux, Switzerland","La Place, La Chaux (Cossonay), Vaud, CH",,MapQuest,street
42,46.638116,6.634695,"Echallens, Switzerland","Echallens, VAUD, CH",,MapQuest,city/town
43,46.619839,6.821521,"Rue, Switzerland","Rue, FRIBOURG, CH",,MapQuest,city/town
44,46.628415,6.938665,"La Joux, Switzerland","La Joux, FRIBOURG, CH",,MapQuest,city/town
45,46.614624,7.059381,"Bulle, Switzerland","Bulle, FRIBOURG, CH",,MapQuest,city/town
46,46.5838,7.082668,"Gruyères, Switzerland","Gruyères, FRIBOURG, CH",,MapQuest,city/town
47,46.61987,7.164581,"Charmey, Switzerland","Charmey, FRIBOURG, CH",,MapQuest,city/town
48,46.698611,6.923026,"Romont, Switzerland","Romont, FRIBOURG, CH",,MapQuest,city/town
49,46.696658,7.139348,"La Roche, Switzerland","La Roche, FRIBOURG, CH",,MapQuest,city/town
50,46.709179,6.840827,"Lucens, Switzerland","Lucens, VAUD, CH",,MapQuest,city/town
51,46.668066,6.800348,"Moudon, Switzerland","Moudon, VAUD, CH",,MapQuest,city/town
52,46.675524,6.682709,"Fey, Switzerland","Fey, VAUD, CH",,MapQuest,city/town
53,46.70625,6.56957,"Chavornay, Switzerland","Chavornay, VAUD, CH",,MapQuest,city/town
54,46.724144,6.531794,"Orbe, Switzerland","Orbe, VAUD, CH",,MapQuest,city/town
55,46.688355,6.389407,"Vaulion, Switzerland","Vaulion, VAUD, CH",,MapQuest,city/town
56,46.712171,6.378848,"Vallorbe, Switzerland","Vallorbe, VAUD, CH",,MapQuest,city/town
57,46.822185,6.501059,"Ste-Croix, Switzerland","Sainte-Croix, VAUD, CH",,MapQuest,city/town
58,46.808316,6.641661,"Grandson, Switzerland","Grandson, VAUD, CH",,MapQuest,city/town
59,46.798316,6.744502,"Yvonand, Switzerland","Yvonand, VAUD, CH",,MapQuest,city/town
60,46.749316,6.80876,"Combremont-le-Petit, Switzerland","Combremont-Le-Petit, VAUD, CH",,MapQuest,city/town
61,46.851196,6.84968,"Estavayer, Switzerland","Estavayer-Le-Lac, FRIBOURG, CH",,MapQuest,city/town
62,46.820805,6.939126,"Payerne, Switzerland","Payerne, VAUD, CH",,MapQuest,city/town
63,46.765379,7.016702,"Lentigny, Switzerland","La Brillaz, FRIBOURG, CH",,MapQuest,city/town
64,46.803004,7.151289,"Freiburg, Switzerland","Freiburg, FRIBOURG, CH",,MapQuest,city/town
65,46.865777,7.122228,"Courtepin, Switzerland","Courtepin, FRIBOURG, CH",,MapQuest,city/town
66,46.879575,7.040941,"Avenches, Switzerland","Avenches, VAUD, CH",,MapQuest,city/town
67,46.891352,6.982473,"St-Aubin, Switzerland","Saint-Aubin, CH",,MapQuest,city/town
68,46.89,6.905693,"Chevroux, Switzerland","Chevroux, VAUD, CH",,MapQuest,city/town
69,46.891352,6.982473,"St-Aubin, Switzerland","Saint-Aubin, CH",,MapQuest,city/town
70,46.337627,8.013465,"Buttes, Switzerland","Bitsch, VALAIS - WALLIS, CH",,MapQuest,city/town
71,46.904458,6.482069,"Les Verrières, Switzerland","Les Verrières, NEUCHÂTEL, CH",,MapQuest,city/town
72,46.882748,6.725756,"Môtiers, Switzerland","Mutrux, VAUD, CH",,MapQuest,city/town
73,46.955169,6.837271,"Boudry, Switzerland","Boudry, NEUCHÂTEL, CH",,MapQuest,city/town
74,46.956468,7.018542,"Cudrefin, Switzerland","Cudrefin, VAUD, CH",,MapQuest,city/town
75,46.989583,6.929264,"Neuchâtel, Switzerland","Neuchâtel, NEUCHÂTEL, CH",,MapQuest,city/town
76,46.999085,6.731711,"Les Ponts-de-Martel, Switzerland","Les Ponts-De-Martel, NEUCHÂTEL, CH",,MapQuest,city/town
77,46.982125,6.605188,"La Brévine, Switzerland","La Brévine, NEUCHÂTEL, CH",,MapQuest,city/town
78,47.055591,6.745454,"Le Locle, Switzerland","Le Locle, NEUCHÂTEL, CH",,MapQuest,city/town
79,47.059454,6.905384,"Cernier, Switzerland","Cernier, NEUCHÂTEL, CH",,MapQuest,city/town
80,47.007635,7.28664,"Landeron, Switzerland","Landerswil, BERN - BERNE, CH",,MapQuest,city/town
81,47.082839,7.066159,"Lignières, Switzerland","Lignières, NEUCHÂTEL, CH",,MapQuest,city/town
82,47.113691,7.084579,"Nods, Switzerland","Nods, BERN - BERNE, CH",,MapQuest,city/town
83,47.111833,6.838226,"La Chaux-de-Fonds, Switzerland","La Chaux-De-Fonds, NEUCHÂTEL, CH",,MapQuest,city/town
84,47.151775,6.997197,"St-Imier, Switzerland","Saint-Imier, BERN - BERNE, CH",,MapQuest,city/town
85,47.196789,7.170578,"Sonceboz, Switzerland","Sonceboz-Sombeval, BERN - BERNE, CH",,MapQuest,city/town
86,47.235771,7.224765,"Reconvilier, Switzerland","Reconvilier, BERN - BERNE, CH",,MapQuest,city/town
87,47.223677,7.103022,"Tramelan-Dessus, Switzerland","Tramelan, BERN - BERNE, CH",,MapQuest,city/town
88,47.2558,6.996359,"Saignelégier, Switzerland","Saignelégier, JURA, CH",,MapQuest,city/town
89,47.303311,7.224096,"Undervelier, Switzerland","Undervelier, JURA, CH",,MapQuest,city/town
90,47.279614,7.370419,"Moutier, Switzerland","Moutier, BERN - BERNE, CH",,MapQuest,city/town
91,47.338851,7.515419,"Mervelier, Switzerland","Mervelier, JURA, CH",,MapQuest,city/town
92,47.361961,7.354039,"Delémont, Switzerland","Delémont, JURA, CH",,MapQuest,city/town
93,47.337022,7.24424,"Bassecourt, Switzerland","Bassecourt, JURA, CH",,MapQuest,city/town
94,47.349307,7.120853,"St-Ursanne, Switzerland","Clos du Doubs, JURA, CH",,MapQuest,city/town
95,47.417049,7.07578,"Porrentruy, Switzerland","Porrentruy, JURA, CH",,MapQuest,city/town
96,47.373123,6.896769,"Damvant, Switzerland","Damvant, JURA, CH",,MapQuest,city/town
97,47.498184,7.012558,"Boncourt, Switzerland","Boncourt, JURA, CH",,MapQuest,city/town
98,47.476701,7.152302,"Bonfol, Switzerland","Bonfol, JURA, CH",,MapQuest,city/town
99,47.558108,7.587826,"Basel, Switzerland","Basel, BASEL-CITY, CH",,MapQuest,city/town
100,47.554386,7.792291,"Rheinfelden, Switzerland","Rheinfelden, ARGOVIA, CH",,MapQuest,city/town
101,47.19917,9.228339,"Stein, Switzerland","Stein, ST. GALLEN, CH",,MapQuest,city/town
102,47.560462,8.06017,"Laufenburg, Switzerland","Laufenburg, ARGOVIA, CH",,MapQuest,city/town
103,47.507508,8.020307,"Frick, Switzerland","Frick, ARGOVIA, CH",,MapQuest,city/town
104,47.519201,7.694474,"Pratteln, Switzerland","Pratteln, BASEL-LANDSCHAFT, CH",,MapQuest,city/town
105,47.498317,7.561237,"Therwil, Switzerland","Therwil, BASEL-LANDSCHAFT, CH",,MapQuest,city/town
106,47.481348,7.622783,"Dornach, Switzerland","Dornach, SOLOTHURN, CH",,MapQuest,city/town
107,47.483972,7.734778,"Liestal, Switzerland","Liestal, BASEL-LANDSCHAFT, CH",,MapQuest,city/town
108,47.463477,7.812564,"Sissach, Switzerland","Sissach, BASEL-LANDSCHAFT, CH",,MapQuest,city/town
109,47.440539,7.907641,"Wenslingen, Switzerland","Wenslingen, BASEL-LANDSCHAFT, CH",,MapQuest,city/town
110,47.43671,8.099952,"Thalheim, Switzerland","Thalheim, ARGOVIA, CH",,MapQuest,city/town
111,47.44735,8.13773,"Schinznach, Switzerland","Schinznach, CH",,MapQuest,city/town
112,47.392715,8.044445,"Aarau, Switzerland","Aarau, ARGOVIA, CH",,MapQuest,city/town
113,47.363788,7.967003,"Gösgen, Switzerland","Kraftwerkstrasse, Däniken, Amtei Olten-Gösgen, Solothurn, CH",,MapQuest,address
114,47.395816,7.854695,"Läufelfingen, Switzerland","Läufelfingen, BASEL-LANDSCHAFT, CH",,MapQuest,city/town
115,47.397426,7.691818,"Reigoldswil, Switzerland","Reigoldswil, BASEL-LANDSCHAFT, CH",,MapQuest,city/town
116,47.39474,7.619266,"Nunningen, Switzerland","Nunningen, SOLOTHURN, CH",,MapQuest,city/town
117,47.42241,7.502002,"Laufen, Switzerland","Laufen, BASEL-LANDSCHAFT, CH",,MapQuest,city/town
118,47.426237,7.417565,"Kleinlützel, Switzerland","Kleinlützel, SOLOTHURN, CH",,MapQuest,city/town
119,47.280649,7.525223,"Welschenrohr, Switzerland","Welschenrohr, SOLOTHURN, CH",,MapQuest,city/town
120,47.314037,7.694776,"Balsthal, Switzerland","Balsthal, SOLOTHURN, CH",,MapQuest,city/town
121,47.333129,7.836512,"Hägendorf, Switzerland","Hägendorf, SOLOTHURN, CH",,MapQuest,city/town
122,47.320642,7.89936,"Aarburg, Switzerland","Aarburg, ARGOVIA, CH",,MapQuest,city/town
123,47.288491,7.945826,"Zofingen, Switzerland","Zofingen, ARGOVIA, CH",,MapQuest,city/town
124,47.305452,8.052795,"Schöftland, Switzerland","Schöftland, ARGOVIA, CH",,MapQuest,city/town
125,47.310784,8.115696,"Unterkulm, Switzerland","Unterkulm, ARGOVIA, CH",,MapQuest,city/town
126,47.235197,8.076748,"Triengen, Switzerland","Triengen, LUZERN, CH",,MapQuest,city/town
127,47.213567,7.990113,"Dagmersellen, Switzerland","Dagmersellen, LUZERN, CH",,MapQuest,city/town
128,47.234607,7.816166,"Roggwil, Switzerland","Roggwil, BERN - BERNE, CH",,MapQuest,city/town
129,47.266248,7.692307,"Niederbipp, Switzerland","Niederbipp, BERN - BERNE, CH",,MapQuest,city/town
130,47.199531,7.585984,"Derendingen, Switzerland","Derendingen, SOLOTHURN, CH",,MapQuest,city/town
131,47.208136,7.538405,"Solothurn, Switzerland","Solothurn, SOLOTHURN, CH",,MapQuest,city/town
132,47.196838,7.396587,"Grenchen, Switzerland","Grenchen, SOLOTHURN, CH",,MapQuest,city/town
133,47.521079,8.330138,"Lengnau, Switzerland","Lengnau, ARGOVIA, CH",,MapQuest,city/town
134,47.142045,7.258567,"Biel, Switzerland","Biel/Bienne, BERN - BERNE, CH",,MapQuest,city/town
135,47.447666,7.668458,"Büren, Switzerland","Büren, CH",,MapQuest,city/town
136,47.129051,7.559255,"Utzenstorf, Switzerland","Utzenstorf, BERN - BERNE, CH",,MapQuest,city/town
137,47.188131,7.705705,"Herzogenbuchsee, Switzerland","Herzogenbuchsee, BERN - BERNE, CH",,MapQuest,city/town
138,47.136393,7.813343,"Rohrbach, Switzerland","Rohrbach, BERN - BERNE, CH",,MapQuest,city/town
139,47.121518,7.99659,"Willisau, Switzerland","Willisau, LUZERN, CH",,MapQuest,city/town
140,47.177483,8.109794,"Sursee, Switzerland","Sursee, LUZERN, CH",,MapQuest,city/town
141,47.05747,8.073151,"Wolhusen, Switzerland","Wolhusen, LUZERN, CH",,MapQuest,city/town
142,47.057067,7.91394,"Luthern, Switzerland","Luthern, LUZERN, CH",,MapQuest,city/town
143,47.028565,7.744983,"Sumiswald, Switzerland","Sumiswald, BERN - BERNE, CH",,MapQuest,city/town
144,47.058688,7.623159,"Burgdorf, Switzerland","Burgdorf, BERN - BERNE, CH",,MapQuest,city/town
145,47.090408,7.447345,"Messen, Switzerland","Messen, SOLOTHURN, CH",,MapQuest,city/town
146,47.044335,7.2753,"Aarberg, Switzerland","Aarberg, BERN - BERNE, CH",,MapQuest,city/town
147,47.112581,7.171505,"Twann, Switzerland","Twann, BERN - BERNE, CH",,MapQuest,city/town
148,47.005886,7.105626,"Ins, Switzerland","Ins, BERN - BERNE, CH",,MapQuest,city/town
149,46.976132,7.197283,"Kerzers, Switzerland","Kerzers, FRIBOURG, CH",,MapQuest,city/town
150,47.021332,7.45192,"Münchenbuchsee, Switzerland","Münchenbuchsee, BERN - BERNE, CH",,MapQuest,city/town
151,46.992113,8.064519,"Entlebuch, Switzerland","Entlebuch, LUZERN, CH",,MapQuest,city/town
152,46.913477,7.937008,"Escholzmatt, Switzerland","Escholzmatt, LUZERN, CH",,MapQuest,city/town
153,46.922889,7.846683,"Trubschachen, Switzerland","Trubschachen, BERN - BERNE, CH",,MapQuest,city/town
154,46.948276,7.451501,"Bern, Switzerland","Berne, BERN - BERNE, CH",,MapQuest,city/town
155,46.928408,7.116332,"Murten, Switzerland","Murten, FRIBOURG, CH",,MapQuest,city/town
156,46.892804,7.175773,"Gurmels, Switzerland","Gurmels, FRIBOURG, CH",,MapQuest,city/town
157,46.851196,7.190354,"Düdingen, Switzerland","Düdingen, FRIBOURG, CH",,MapQuest,city/town
158,46.903302,7.239642,"Laupen, Switzerland","Laupen, BERN - BERNE, CH",,MapQuest,city/town
159,46.875973,7.278834,"Wünnewil, Switzerland","Wünnewil-Flamatt, FRIBOURG, CH",,MapQuest,city/town
160,46.88978,7.498388,"Belp, Switzerland","Belp, BERN - BERNE, CH",,MapQuest,city/town
161,46.873978,7.563194,"Münsingen, Switzerland","Münsingen, BERN - BERNE, CH",,MapQuest,city/town
162,46.874873,7.796291,"Eggiwil, Switzerland","Eggiwil, BERN - BERNE, CH",,MapQuest,city/town
163,46.730728,8.051004,"Brienz, Switzerland","Brienz, BERN - BERNE, CH",,MapQuest,city/town
164,46.716429,7.71607,"Sigriswil, Switzerland","Sigriswil, BERN - BERNE, CH",,MapQuest,city/town
165,46.758283,7.628086,"Thun, Switzerland","Thun, BERN - BERNE, CH",,MapQuest,city/town
166,46.793095,7.602917,"Heimberg, Switzerland","Heimberg, BERN - BERNE, CH",,MapQuest,city/town
167,46.767234,7.50719,"Wattenwil, Switzerland","Wattenwil, BERN - BERNE, CH",,MapQuest,city/town
168,46.82128,7.376392,"Elisried-Schwarzenburg, Switzerland","Elisried, BERN - BERNE, CH",,MapQuest,city/town
169,46.761502,7.210014,"Giffers, Switzerland","Giffers, FRIBOURG, CH",,MapQuest,city/town
170,46.741454,7.28651,"Plaffeien, Switzerland","Plaffeien, FRIBOURG, CH",,MapQuest,city/town
171,46.611395,7.276131,"Jaun, Switzerland","Jaun, FRIBOURG, CH",,MapQuest,city/town
172,47.301611,8.591533,"Erlenbach, Switzerland","Erlenbach, ZURICH, CH",,MapQuest,city/town
173,46.691947,7.677466,"Spiez, Switzerland","Spiez, BERN - BERNE, CH",,MapQuest,city/town
174,46.685523,7.858514,"Interlaken, Switzerland","Interlaken, BERN - BERNE, CH",,MapQuest,city/town
175,46.624273,8.036746,"Grindelwald, Switzerland","Grindelwald, BERN - BERNE, CH",,MapQuest,city/town
176,46.737906,8.205257,"Hasliberg, Switzerland","Hasliberg, BERN - BERNE, CH",,MapQuest,city/town
177,46.6557,8.289223,"Guttannen, Switzerland","Guttannen, BERN - BERNE, CH",,MapQuest,city/town
178,46.559458,7.892932,"Mürren, Switzerland","Mürren, BERN - BERNE, CH",,MapQuest,city/town
179,46.587502,7.643833,"Frutigen, Switzerland","Frutigen, BERN - BERNE, CH",,MapQuest,city/town
180,46.553261,7.373806,"Zweisimmen, Switzerland","Zweisimmen, BERN - BERNE, CH",,MapQuest,city/town
181,47.327748,9.22689,"Saanen-Gstaad, Switzerland","Schönengrund, APPENZELL AUSSERRHODEN, CH",,MapQuest,city/town
182,46.38512,7.269732,"Gsteig, Switzerland","Gsteig, BERN - BERNE, CH",,MapQuest,city/town
183,46.455888,7.441698,"Lenk, Switzerland","Lenk, BERN - BERNE, CH",,MapQuest,city/town
184,46.492721,7.558762,"Adelboden, Switzerland","Adelboden, BERN - BERNE, CH",,MapQuest,city/town
185,46.497587,7.675664,"Kandersteg, Switzerland","Kandersteg, BERN - BERNE, CH",,MapQuest,city/town
186,46.403995,7.78361,"Wiler, Switzerland","Wiler, CH",,MapQuest,city/town
187,46.538811,8.363232,"Oberwald, Switzerland","Obergoms, VALAIS - WALLIS, CH",,MapQuest,city/town
188,47.279614,7.370419,"Münster, Switzerland","Moutier, BERN - BERNE, CH",,MapQuest,city/town
189,46.806592,9.257625,"Lax, Switzerland","Laax, GRAUBÜNDEN - GRIGIONI - GRISCHUN, CH",,MapQuest,city/town
190,46.36457,8.184374,"Binn, Switzerland","Binn, VALAIS - WALLIS, CH",,MapQuest,city/town
191,46.316346,7.987947,"Brig, Switzerland","Brig-Glis, VALAIS - WALLIS, CH",,MapQuest,city/town
192,46.291311,7.881192,"Visp, Switzerland","Visp, VALAIS - WALLIS, CH",,MapQuest,city/town
193,46.273178,7.86562,"Zeneggen, Switzerland","Zeneggen, VALAIS - WALLIS, CH",,MapQuest,city/town
194,46.309934,7.799589,"Raron, Switzerland","Raron, VALAIS - WALLIS, CH",,MapQuest,city/town
195,46.301121,7.701742,"Turtmann, Switzerland","Turtmann, VALAIS - WALLIS, CH",,MapQuest,city/town
196,46.314982,7.645981,"Leuk, Switzerland","Leuk, CH",,MapQuest,city/town
197,46.022227,7.7494,"Zermatt, Switzerland","Zermatt, VALAIS - WALLIS, CH",,MapQuest,city/town
198,46.127844,7.937005,"Saas-Grund, Switzerland","Saas-Grund, VALAIS - WALLIS, CH",,MapQuest,city/town
199,47.139085,6.966539,"Simpeln, Switzerland","Sonvilier, BERN - BERNE, CH",,MapQuest,city/town
200,47.748379,8.482756,"Schleitheim, Switzerland","Schleitheim, SCHAFFHAUSEN, CH",,MapQuest,city/town
201,47.734522,8.57974,"Hemmenthal, Switzerland","Hemmental, SCHAFFHAUSEN, CH",,MapQuest,city/town
202,47.74595,8.706769,"Thayngen, Switzerland","Thayngen, SCHAFFHAUSEN, CH",,MapQuest,city/town
203,47.687532,8.749267,"Diessenhofen, Switzerland","Diessenhofen, THURGAU, CH",,MapQuest,city/town
204,47.696049,8.634513,"Schaffhausen, Switzerland","Schaffhausen, SCHAFFHAUSEN, CH",,MapQuest,city/town
205,47.696528,8.457861,"Hallau, Switzerland","Hallau, SCHAFFHAUSEN, CH",,MapQuest,city/town
206,47.586562,8.294469,"Zurzach, Switzerland","Bad Zurzach, ARGOVIA, CH",,MapQuest,city/town
207,47.581005,8.250009,"Klingnau, Switzerland","Klingnau, ARGOVIA, CH",,MapQuest,city/town
208,46.879645,7.663077,"Oberendingen, Switzerland","Oberhünigen, BERN - BERNE, CH",,MapQuest,city/town
209,47.568452,8.418364,"Kaiserstuhl, Switzerland","Kaiserstuhl, ARGOVIA, CH",,MapQuest,city/town
210,47.573321,8.523983,"Eglisau, Switzerland","Eglisau, ZURICH, CH",,MapQuest,city/town
211,47.595333,8.679434,"Andelfingen, Switzerland","Andelfingen, ZURICH, CH",,MapQuest,city/town
212,47.661371,8.858237,"Stammheim, Switzerland","Stein am Rhein, SCHAFFHAUSEN, CH",,MapQuest,city/town
213,47.19917,9.228339,"Stein, Switzerland","Stein, ST. GALLEN, CH",,MapQuest,city/town
214,47.665343,8.981525,"Steckborn, Switzerland","Steckborn, THURGAU, CH",,MapQuest,city/town
215,47.646425,9.172556,"Kreuzlingen, Switzerland","Kreuzlingen, THURGAU, CH",,MapQuest,city/town
216,47.61241,9.260705,"Altnau, Switzerland","Altnau, THURGAU, CH",,MapQuest,city/town
217,47.565445,9.377604,"Romanshorn, Switzerland","Romanshorn, THURGAU, CH",,MapQuest,city/town
218,47.47763,9.501998,"Rorschach, Switzerland","Rorschach, ST. GALLEN, CH",,MapQuest,city/town
219,47.472164,9.579488,"Rheineck, Switzerland","Rheineck, ST. GALLEN, CH",,MapQuest,city/town
220,47.442172,9.532089,"Heiden, Switzerland","Heiden, APPENZELL AUSSERRHODEN, CH",,MapQuest,city/town
221,47.425059,9.376588,"St. Gallen, Switzerland","Sankt Gallen, ST. GALLEN, CH",,MapQuest,city/town
222,47.492723,9.239655,"Bischofszell, Switzerland","Bischofszell, THURGAU, CH",,MapQuest,city/town
223,47.552354,9.150166,"Bürglen, Switzerland","Bürglen, THURGAU, CH",,MapQuest,city/town
224,47.601993,9.002021,"Müllheim, Switzerland","Müllheim, THURGAU, CH",,MapQuest,city/town
225,47.607393,8.871922,"Hüttwilen, Switzerland","Hüttwilen, THURGAU, CH",,MapQuest,city/town
226,47.556228,8.896399,"Frauenfeld, Switzerland","Frauenfeld, THURGAU, CH",,MapQuest,city/town
227,47.499169,8.72915,"Winterthur, Switzerland","Winterthur, ZURICH, CH",,MapQuest,city/town
228,47.52018,8.541784,"Bülach, Switzerland","Bülach, ZURICH, CH",,MapQuest,city/town
229,47.505042,8.378573,"Niederweningen, Switzerland","Niederweningen, ZURICH, CH",,MapQuest,city/town
230,47.482463,8.208566,"Brugg, Switzerland","Brugg, ARGOVIA, CH",,MapQuest,city/town
231,47.473683,8.308682,"Baden, Switzerland","Baden, ARGOVIA, CH",,MapQuest,city/town
232,47.162763,9.476409,"Buchs, Switzerland","Buchs, ST. GALLEN, CH",,MapQuest,city/town
233,47.32158,8.640893,"Wangen, Switzerland","Wangen, ZURICH, CH",,MapQuest,city/town
234,47.473149,8.675324,"Brütten, Switzerland","Brütten, ZURICH, CH",,MapQuest,city/town
235,47.494137,8.868881,"Elgg, Switzerland","Elgg, ZURICH, CH",,MapQuest,city/town
236,47.49093,8.955449,"Wängi, Switzerland","Wängi, THURGAU, CH",,MapQuest,city/town
237,47.465441,9.04232,"Wil , Switzerland","Wil, ST. GALLEN, CH",,MapQuest,city/town
238,47.414613,9.186149,"Flawil, Switzerland","Flawil, ST. GALLEN, CH",,MapQuest,city/town
239,47.409509,9.026701,"Kirchberg, Switzerland","Kirchberg, ST. GALLEN, CH",,MapQuest,city/town
240,47.416183,8.969802,"Fischingen, Switzerland","Fischingen, THURGAU, CH",,MapQuest,city/town
241,47.436668,8.849538,"Turbenthal, Switzerland","Turbenthal, ZURICH, CH",,MapQuest,city/town
242,47.406883,8.402089,"Dietikon, Switzerland","Dietikon, ZURICH, CH",,MapQuest,city/town
243,47.419513,8.274659,"Mellingen, Switzerland","Mellingen, ARGOVIA, CH",,MapQuest,city/town
244,47.387237,8.182851,"Lenzburg, Switzerland","Lenzburg, ARGOVIA, CH",,MapQuest,city/town
245,47.325259,8.207879,"Seengen, Switzerland","Seengen, ARGOVIA, CH",,MapQuest,city/town
246,47.309921,8.24856,"Sarmenstorf, Switzerland","Sarmenstorf, ARGOVIA, CH",,MapQuest,city/town
247,47.351952,8.439633,"Birmensdorf, Switzerland","Birmensdorf, CH",,MapQuest,city/town
248,47.368559,8.540443,"Zürich, Switzerland","Zurich, ZURICH, CH",,MapQuest,city/town
249,47.28194,8.761328,"Grüningen, Switzerland","Grüningen, ZURICH, CH",,MapQuest,city/town
250,47.36975,8.781494,"Pfäffikon, Switzerland","Pfäffikon, ZURICH, CH",,MapQuest,city/town
251,47.387266,8.911653,"Sternenberg, Switzerland","Sternenberg, ZURICH, CH",,MapQuest,city/town
252,47.334051,8.923409,"Fischenthal, Switzerland","Fischenthal, ZURICH, CH",,MapQuest,city/town
253,47.323322,9.088184,"Lichtensteig, Switzerland","Lichtensteig, ST. GALLEN, CH",,MapQuest,city/town
254,47.317503,9.283723,"Urnäsch, Switzerland","Urnäsch, APPENZELL AUSSERRHODEN, CH",,MapQuest,city/town
255,47.38555,9.278757,"Herisau, Switzerland","Herisau, APPENZELL AUSSERRHODEN, CH",,MapQuest,city/town
256,47.329546,9.409806,"Appenzell, Switzerland","Appenzell, APPENZELL INNERRHODEN, CH",,MapQuest,city/town
257,47.36252,9.454257,"Gais, Switzerland","Gais, APPENZELL AUSSERRHODEN, CH",,MapQuest,city/town
258,47.378347,9.541277,"Altstätten, Switzerland","Altstätten, ST. GALLEN, CH",,MapQuest,city/town
259,47.424902,9.610214,"Berneck, Switzerland","Berneck, ST. GALLEN, CH",,MapQuest,city/town
260,47.293517,9.536884,"Rüthi, Switzerland","Rüthi, ST. GALLEN, CH",,MapQuest,city/town
261,47.29707,9.456126,"Brüllisau, Switzerland","Brulisau, APPENZELL INNERRHODEN, CH",,MapQuest,city/town
262,47.263534,9.123356,"Ebnat, Switzerland","Ebnat-Kappel, ST. GALLEN, CH",,MapQuest,city/town
263,47.225064,8.985608,"Uznach, Switzerland","Uznach, ST. GALLEN, CH",,MapQuest,city/town
264,46.88018,7.460581,"Wald, Switzerland","Wald, BERN - BERNE, CH",,MapQuest,city/town
265,47.22692,8.824546,"Rapperswil, Switzerland","Rapperswil-Jona, ST. GALLEN, CH",,MapQuest,city/town
266,47.26942,8.64259,"Meilen, Switzerland","Meilen, ZURICH, CH",,MapQuest,city/town
267,47.260692,8.597683,"Horgen, Switzerland","Horgen, ZURICH, CH",,MapQuest,city/town
268,47.039177,8.783416,"Oberiberg, Switzerland","Oberiberg, Schwyz, SCHWYZ, CH",,MapQuest,city/town
269,47.243488,8.46367,"Mettmenstetten, Switzerland","Mettmenstetten, ZURICH, CH",,MapQuest,city/town
270,47.275661,8.337783,"Muri, Switzerland","Muri, ARGOVIA, CH",,MapQuest,city/town
271,47.253968,8.182824,"Reinach, Switzerland","Reinach, ARGOVIA, CH",,MapQuest,city/town
272,47.207637,8.192439,"Beromünster, Switzerland","Beromünster, LUZERN, CH",,MapQuest,city/town
273,47.135911,8.191616,"Sempach, Switzerland","Sempach, LUZERN, CH",,MapQuest,city/town
274,47.166536,8.289971,"Hochdorf, Switzerland","Hochdorf, LUZERN, CH",,MapQuest,city/town
275,47.183174,8.461948,"Cham, Switzerland","Cham, ZUG, CH",,MapQuest,city/town
276,47.171581,8.519437,"Zug, Switzerland","Zug, ZUG, CH",,MapQuest,city/town
277,45.964336,8.910374,"Ägeri, Switzerland","Agra, TICINO, CH",,MapQuest,city/town
278,47.216704,8.608991,"Hirzel, Switzerland","Hirzel, ZURICH, CH",,MapQuest,city/town
279,47.192159,8.677586,"Samstagern, Switzerland","Samstagern, ZURICH, CH",,MapQuest,city/town
280,47.192383,8.852383,"Lachen, Switzerland","Lachen, SCHWYZ, CH",,MapQuest,city/town
281,47.152156,9.028029,"Bilten, Switzerland","Bilten, GLARUS, CH",,MapQuest,city/town
282,47.149632,9.141123,"Amden, Switzerland","Amden, ST. GALLEN, CH",,MapQuest,city/town
283,47.117211,9.150077,"Obstalden, Switzerland","Obstalden, GLARUS, CH",,MapQuest,city/town
284,47.123646,9.314992,"Wallenstadt, Switzerland","Walenstadt, ST. GALLEN, CH",,MapQuest,city/town
285,47.197238,9.315907,"Wildhaus, Switzerland","Wildhaus, ST. GALLEN, CH",,MapQuest,city/town
286,47.162763,9.476409,"Buchs, Switzerland","Buchs, ST. GALLEN, CH",,MapQuest,city/town
287,46.421903,6.927504,"Vaduz, Switzerland","Veytaux, VAUD, CH",,MapQuest,city/town
288,47.048815,9.439378,"Sargans, Switzerland","Sargans, ST. GALLEN, CH",,MapQuest,city/town
289,46.995494,9.071341,"Schwanden, Switzerland","Schwanden, GLARUS, CH",,MapQuest,city/town
290,47.042212,9.067404,"Glarus, Switzerland","Glarus, GLARUS, CH",,MapQuest,city/town
291,47.12861,8.75003,"Einsiedeln, Switzerland","Einsiedeln, Einsiedeln, SCHWYZ, CH",,MapQuest,city/town
292,47.104726,8.674844,"Rothenthurm, Switzerland","Rothenthurm, Schwyz, SCHWYZ, CH",,MapQuest,city/town
293,47.064455,8.523867,"Arth, Switzerland","Arth, Schwyz, SCHWYZ, CH",,MapQuest,city/town
294,47.114951,8.392331,"Root, Switzerland","Root, LUZERN, CH",,MapQuest,city/town
295,47.050545,8.305468,"Luzern, Switzerland","Lucerne, LUZERN, CH",,MapQuest,city/town
296,47.033975,8.437964,"Weggis, Switzerland","Weggis, LUZERN, CH",,MapQuest,city/town
297,47.021185,8.65356,"Schwyz, Switzerland","Schwyz, Schwyz, SCHWYZ, CH",,MapQuest,city/town
298,46.974668,8.765803,"Muotathal, Switzerland","Muotathal, Schwyz, SCHWYZ, CH",,MapQuest,city/town
299,46.9186,8.997365,"Linthal, Switzerland","Linthal, GLARUS, CH",,MapQuest,city/town
300,46.918888,9.17194,"Elm, Switzerland","Elm, GLARUS, CH",,MapQuest,city/town
301,46.989184,9.344335,"Weisstannen, Switzerland","Weisstannen, ST. GALLEN, CH",,MapQuest,city/town
302,47.007729,9.530923,"Maienfeld, Switzerland","Maienfeld, Landquart, GRAUBÜNDEN - GRIGIONI - GRISCHUN, CH",,MapQuest,city/town
303,46.968932,9.690048,"Schiers, Switzerland","Schiers, GRAUBÜNDEN - GRIGIONI - GRISCHUN, CH",,MapQuest,city/town
304,46.969343,9.814077,"St. Antönien, Switzerland","St. Antönien, GRAUBÜNDEN - GRIGIONI - GRISCHUN, CH",,MapQuest,city/town
305,46.87979,9.860831,"Klosters, Switzerland","Klosters, GRAUBÜNDEN - GRIGIONI - GRISCHUN, CH",,MapQuest,city/town
306,46.936996,9.566524,"Zizers, Switzerland","Zizers, Landquart, GRAUBÜNDEN - GRIGIONI - GRISCHUN, CH",,MapQuest,city/town
307,46.421903,6.927504,"Vättis, Switzerland","Veytaux, VAUD, CH",,MapQuest,city/town
308,46.863934,8.770358,"Unterschächen, Switzerland","Unterschächen, URI, CH",,MapQuest,city/town
309,46.886467,8.638399,"Altdorf, Switzerland","Altdorf, URI, CH",,MapQuest,city/town
310,46.910246,8.562013,"Isenthal, Switzerland","Isenthal, URI, CH",,MapQuest,city/town
311,46.967117,8.474879,"Beckenried, Switzerland","Beckenried, NIDWALDEN, CH",,MapQuest,city/town
312,46.957061,8.366103,"Stans, Switzerland","Stans, NIDWALDEN, CH",,MapQuest,city/town
313,46.941166,8.273683,"Alpnach, Switzerland","Alpnach, OBWALDEN, CH",,MapQuest,city/town
314,46.895673,8.246149,"Sarnen, Switzerland","Sarnen, OBWALDEN, CH",,MapQuest,city/town
315,46.78573,8.160728,"Lungern, Switzerland","Lungern, OBWALDEN, CH",,MapQuest,city/town
316,46.82235,8.4044,"Engelberg, Switzerland","Engelberg, OBWALDEN, CH",,MapQuest,city/town
317,46.771079,8.670326,"Amsteg, Switzerland","Amsteg, URI, CH",,MapQuest,city/town
318,46.707128,8.59944,"Wassen, Switzerland","Wassen, URI, CH",,MapQuest,city/town
319,46.63405,8.594815,"Andermatt, Switzerland","Andermatt, URI, CH",,MapQuest,city/town
320,46.681934,8.774525,"Sedrun, Switzerland","Sedrun, GRAUBÜNDEN - GRIGIONI - GRISCHUN, CH",,MapQuest,city/town
321,46.704175,8.854979,"Mustèr, Switzerland","Disentis/Mustér, GRAUBÜNDEN - GRIGIONI - GRISCHUN, CH",,MapQuest,city/town
322,46.000619,8.935122,"Surrhein-Sumvitg, Switzerland","Sorengo, TICINO, CH",,MapQuest,city/town
323,46.767563,9.062285,"Breil, Switzerland","Breil/Brigels, GRAUBÜNDEN - GRIGIONI - GRISCHUN, CH",,MapQuest,city/town
324,46.723594,9.0721,"Obersaxen, Switzerland","Obersaxen, GRAUBÜNDEN - GRIGIONI - GRISCHUN, CH",,MapQuest,city/town
325,46.775575,9.205496,"Ilanz, Switzerland","Ilanz, GRAUBÜNDEN - GRIGIONI - GRISCHUN, CH",,MapQuest,city/town
326,46.833244,9.283456,"Flims, Switzerland","Flims, GRAUBÜNDEN - GRIGIONI - GRISCHUN, CH",,MapQuest,city/town
327,46.835127,9.450686,"Domat, Switzerland","Domat/Ems, GRAUBÜNDEN - GRIGIONI - GRISCHUN, CH",,MapQuest,city/town
328,46.855515,9.525407,"Chur, Switzerland","Chur, GRAUBÜNDEN - GRIGIONI - GRISCHUN, CH",,MapQuest,city/town
329,46.820889,9.712358,"Langwies, Switzerland","Langwies, GRAUBÜNDEN - GRIGIONI - GRISCHUN, CH",,MapQuest,city/town
330,46.796174,9.823727,"Davos, Switzerland","Davos, GRAUBÜNDEN - GRIGIONI - GRISCHUN, CH",,MapQuest,city/town
331,46.944242,10.360084,"Samnaun, Switzerland","Samnaun, GRAUBÜNDEN - GRIGIONI - GRISCHUN, CH",,MapQuest,city/town
332,46.869185,10.425427,"Tschlin, Switzerland","Tschlin, GRAUBÜNDEN - GRIGIONI - GRISCHUN, CH",,MapQuest,city/town
333,46.796281,10.29763,"Scuol, Switzerland","Scuol, GRAUBÜNDEN - GRIGIONI - GRISCHUN, CH",,MapQuest,city/town
334,46.749376,10.079741,"Susch, Switzerland","Susch, GRAUBÜNDEN - GRIGIONI - GRISCHUN, CH",,MapQuest,city/town
335,46.707128,8.59944,"Wiesen, Switzerland","Wassen, URI, CH",,MapQuest,city/town
336,46.779725,9.678136,"Arosa, Switzerland","Arosa, GRAUBÜNDEN - GRIGIONI - GRISCHUN, CH",,MapQuest,city/town
337,46.778453,9.542968,"Churwalden, Switzerland","Churwalden, GRAUBÜNDEN - GRIGIONI - GRISCHUN, CH",,MapQuest,city/town
338,46.737668,9.455233,"Almens, Switzerland","Almens, Hinterrhein, GRAUBÜNDEN - GRIGIONI - GRISCHUN, CH",,MapQuest,city/town
339,46.280528,8.984788,"Präz-Dalin, Switzerland","Prosito, TICINO, CH",,MapQuest,city/town
340,46.719281,9.173128,"Villa, Switzerland","Vella, GRAUBÜNDEN - GRIGIONI - GRISCHUN, CH",,MapQuest,city/town
341,46.681809,9.316042,"Safien, Switzerland","Safien, GRAUBÜNDEN - GRIGIONI - GRISCHUN, CH",,MapQuest,city/town
342,46.697852,9.439328,"Thusis, Switzerland","Thusis, Hinterrhein, GRAUBÜNDEN - GRIGIONI - GRISCHUN, CH",,MapQuest,city/town
343,46.183916,6.122405,"Lansch, Switzerland","Lancy, GENÈVE, CH",,MapQuest,city/town
344,46.673779,9.685972,"Filisur, Switzerland","Filisur, GRAUBÜNDEN - GRIGIONI - GRISCHUN, CH",,MapQuest,city/town
345,46.630287,9.746505,"Bravuogn, Switzerland","Bergün, GRAUBÜNDEN - GRIGIONI - GRISCHUN, CH",,MapQuest,city/town
346,46.697984,10.094331,"Zernez, Switzerland","Zernez, GRAUBÜNDEN - GRIGIONI - GRISCHUN, CH",,MapQuest,city/town
347,46.610637,10.374508,"Müstair, Switzerland","Val Müstair, GRAUBÜNDEN - GRIGIONI - GRISCHUN, CH",,MapQuest,city/town
348,46.601289,9.960804,"Zuoz, Switzerland","Zuoz, GRAUBÜNDEN - GRIGIONI - GRISCHUN, CH",,MapQuest,city/town
349,46.53324,9.874586,"Samedan, Switzerland","Samedan, GRAUBÜNDEN - GRIGIONI - GRISCHUN, CH",,MapQuest,city/town
350,46.624059,9.5757,"Salouf, Switzerland","Salouf, GRAUBÜNDEN - GRIGIONI - GRISCHUN, CH",,MapQuest,city/town
351,46.602267,9.426968,"Andeer, Switzerland","Andeer, Hinterrhein, GRAUBÜNDEN - GRIGIONI - GRISCHUN, CH",,MapQuest,city/town
352,46.616304,9.180174,"Vals, Switzerland","Vals, GRAUBÜNDEN - GRIGIONI - GRISCHUN, CH",,MapQuest,city/town
353,46.552813,9.323308,"Splügen, Switzerland","Splügen, Hinterrhein, GRAUBÜNDEN - GRIGIONI - GRISCHUN, CH",,MapQuest,city/town
354,46.520932,9.442989,"Innerferrera, Switzerland","Innerferrera, Hinterrhein, GRAUBÜNDEN - GRIGIONI - GRISCHUN, CH",,MapQuest,city/town
355,46.700161,9.43322,"Cresta-Avers, Switzerland","Cresta, Hinterrhein, GRAUBÜNDEN - GRIGIONI - GRISCHUN, CH",,MapQuest,city/town
356,46.468984,9.650616,"Bivio, Switzerland","Bivio, GRAUBÜNDEN - GRIGIONI - GRISCHUN, CH",,MapQuest,city/town
357,46.400734,9.787215,"Segl, Switzerland","Sils im Engadin/Segl, CH",,MapQuest,city/town
358,46.326467,10.058155,"Poschaivo, Switzerland","Poschiavo, GRAUBÜNDEN - GRIGIONI - GRISCHUN, CH",,MapQuest,city/town
359,14.65875,121.08861,"Cassacia, Switzerland","Switzerland, National Capital Region, PH",,MapQuest,street
360,46.341328,9.538848,"Soglio, Switzerland","Soglio, GRAUBÜNDEN - GRIGIONI - GRISCHUN, CH",,MapQuest,city/town
361,46.503674,8.935742,"Olivone, Switzerland","Blenio, TICINO, CH",,MapQuest,city/town
362,46.529031,8.608605,"Airolo, Switzerland","Airolo, TICINO, CH",,MapQuest,city/town
363,46.50874,8.52004,"Villa-Bedretto, Switzerland","Zona Villa, Bedretto, Ticino, CH",,MapQuest,street
364,46.072128,8.98702,"Osco, Switzerland","Oggio, TICINO, CH",,MapQuest,city/town
365,46.402034,8.875963,"Giornico, Switzerland","Giornico, TICINO, CH",,MapQuest,city/town
366,46.247375,7.010776,"Bosco, Switzerland","Bex, VAUD, CH",,MapQuest,city/town
367,46.31696,8.601822,"Cevio, Switzerland","Cevio, TICINO, CH",,MapQuest,city/town
368,46.350274,8.786556,"Sonogno, Switzerland","Sonogno, TICINO, CH",,MapQuest,city/town
369,46.360627,8.971402,"Biasca, Switzerland","Biasca, TICINO, CH",,MapQuest,city/town
370,46.373769,9.126101,"Rossa, Switzerland","Rossa, GRAUBÜNDEN - GRIGIONI - GRISCHUN, CH",,MapQuest,city/town
371,46.394012,9.232881,"Mesocco, Switzerland","Mesocco, GRAUBÜNDEN - GRIGIONI - GRISCHUN, CH",,MapQuest,city/town
372,46.210009,9.12782,"Roveredo, Switzerland","Roveredo, GRAUBÜNDEN - GRIGIONI - GRISCHUN, CH",,MapQuest,city/town
373,46.191862,9.020456,"Bellinzona, Switzerland","Bellinzona, TICINO, CH",,MapQuest,city/town
374,46.2475,8.706678,"Maggia, Switzerland","Maggia, TICINO, CH",,MapQuest,city/town
375,46.205611,8.582133,"Russo, Switzerland","Onsernone, TICINO, CH",,MapQuest,city/town
376,46.155455,8.657804,"Intragna, Switzerland","Intragna, TICINO, CH",,MapQuest,city/town
377,46.1707,8.796838,"Locarno, Switzerland","Locarno, TICINO, CH",,MapQuest,city/town
378,46.094379,8.825932,"Indemini, Switzerland","Indemini, TICINO, CH",,MapQuest,city/town
379,46.132302,8.993756,"Isone, Switzerland","Isone, TICINO, CH",,MapQuest,city/town
380,46.092819,9.054817,"Colla, Switzerland","Colla, TICINO, CH",,MapQuest,city/town
381,46.060855,8.950757,"Ponte-Capriasca, Switzerland","Ponte Capriasca, TICINO, CH",,MapQuest,city/town
382,46.00501,8.952028,"Lugano, Switzerland","Lugano, TICINO, CH",,MapQuest,city/town
383,45.985096,8.869119,"Pura, Switzerland","Pura, TICINO, CH",,MapQuest,city/town
384,45.970147,8.859033,"Ponte-Tresa, Switzerland","Ponte Tresa, TICINO, CH",,MapQuest,city/town
385,45.933078,8.988456,"Rovio, Switzerland","Rovio, TICINO, CH",,MapQuest,city/town
386,45.903163,9.04269,"Muggio, Switzerland","Muggio, TICINO, CH",,MapQuest,city/town
387,45.87099,8.987346,"Mendrisio, Switzerland","Mendrisio, TICINO, CH",,MapQuest,city/town
107a,47.473646,7.759114,"Lausen, Switzerland","Lausen, BASEL-LANDSCHAFT, CH",,MapQuest,city/town
109a,47.432333,7.93486,"Oltingen, Switzerland","Oltingen, BASEL-LANDSCHAFT, CH",,MapQuest,city/town
10a,46.52643,6.41416,"Yens s. Morges, Switzerland","Chemin Sus-Paquier, Yens, Vaud, CH",,MapQuest,street
116a,47.437887,7.527901,"Zwingen, Switzerland","Zwingen, BASEL-LANDSCHAFT, CH",,MapQuest,city/town
124a,47.275507,8.070291,"Kirchleerau, Switzerland","Kirchleerau, ARGOVIA, CH",,MapQuest,city/town
12a,46.489499,6.725328,"Cully, Switzerland","Cully, VAUD, CH",,MapQuest,city/town
14a,46.335757,6.888581,"Vouvry, Switzerland","Vouvry, VALAIS - WALLIS, CH",,MapQuest,city/town
178a,46.593904,7.907802,"Lauterbrunnen, Switzerland","Lauterbrunnen, BERN - BERNE, CH",,MapQuest,city/town
17a,46.253918,6.216459,"St. Maurice, Switzerland","Saint-Maurice, GENÈVE, CH",,MapQuest,city/town
188a,46.444112,8.202735,"Blitzingen, Switzerland","Blitzingen, VALAIS - WALLIS, CH",,MapQuest,city/town
189a,46.372964,8.092535,"Grengiols, Switzerland","Grengiols, VALAIS - WALLIS, CH",,MapQuest,city/town
193a,46.258989,7.903012,"Visperterminen, Switzerland","Visperterminen, VALAIS - WALLIS, CH",,MapQuest,city/town
194a,46.293619,7.781218,"Eischoll, Switzerland","Eischoll, VALAIS - WALLIS, CH",,MapQuest,city/town
196a,46.311489,7.574243,"Salgesch, Switzerland","Salgesch, VALAIS - WALLIS, CH",,MapQuest,city/town
203a,47.706995,8.812202,"Ramsen, Switzerland","Ramsen, SCHAFFHAUSEN, CH",,MapQuest,city/town
258a,47.385951,9.655604,"Diepoldsau, Switzerland","Diepoldsau, ST. GALLEN, CH",,MapQuest,city/town
28a,46.253535,7.34776,"Savièse, Switzerland","Savièse, VALAIS - WALLIS, CH",,MapQuest,city/town
2a,46.21577,6.033089,"Satigny, Switzerland","Satigny, GENÈVE, CH",,MapQuest,city/town
328a,46.833396,9.646881,"St. Peter, Switzerland","Sankt Peter-Pagig, GRAUBÜNDEN - GRIGIONI - GRISCHUN, CH",,MapQuest,city/town
387a,45.85212,8.98462,"Villa di Coldrerio, Switzerland","Via San Giorgio, Coldrerio, Ticino, CH",,MapQuest,street
42a,46.630918,6.728038,"Peney-le-Jorat, Switzerland","Peney-Le-Jorat, VAUD, CH",,MapQuest,city/town
56a,46.72119,6.5362,"Rances s. Orbe, Switzerland","Granges-Saint-Martin, Orbe, Vaud, CH",,MapQuest,street
57a,46.829049,6.59485,"Novalles, Switzerland","Novalles, VAUD, CH",,MapQuest,city/town
57b,47.01303,6.69865,"La Chaux s. Ste-Croix, Switzerland","La Croix, La Chaux-du-Milieu, Neuchâtel, CH",,MapQuest,street
74a,46.719281,9.173128,"Vuilly, Switzerland","Vella, GRAUBÜNDEN - GRIGIONI - GRISCHUN, CH",,MapQuest,city/town
76a,47.014548,6.704515,"La Chaux-du-Milieu, Switzerland","La Chaux-Du-Milieu, NEUCHÂTEL, CH",,MapQuest,city/town
7a,46.409451,6.177917,"Gingins, Switzerland","Gingins, VAUD, CH",,MapQuest,city/town